[
  {
    "name": "Hotel Barahi",
    "city": "Pokhara",
    "province": "3",
    "address": "Lakeside Rd 6",
    "telephone": "61460617",
    "type": [
      "car"
    ],
    "latitude": "28.20833041093028",
    "longitude": "83.95804772177283",
    "plugs": [
      {
        "plug": "type2",
        "power": "7.2Kw",
        "type": "AC"
      }
    ],
    "amenities": [
      "washroom",
      "food",
      "disability",
      "parking",
      "shopping"
    ],
    "status": "unavailable",
    "max_speed": 20,
    "rating": 4,
    "raters": 14,
    "id": 100100,
    "supported_payments": [
      "khalti",
      "alipay",
      "esewa",
      "fonepay"
    ],
    "reviews": []
  },
  {
    "name": "Hundai Service (L I Auto Service)",
    "city": "Kathmandu",
    "province": "3",
    "address": "Hundai service, kupondole",
    "telephone": "01-5550380",
    "type": [
      "car"
    ],
    "latitude": "27.690739168677144",
    "longitude": "85.31152580415048",
    "plugs": [
      {
        "plug": "type2",
        "power": "7.2Kw",
        "type": ""
      }
    ],
    "amenities": [
      "food",
      "wifi",
      "parking",
      "shopping",
      "disability",
      "washroom"
    ],
    "status": "commercial_charging",
    "max_speed": 100,
    "rating": 5,
    "raters": 5,
    "id": 100101,
    "supported_payments": [
      "fonepay",
      "alipay"
    ],
    "reviews": []
  },
  {
    "name": "Hyundai Sales/Service Tinkune",
    "city": "Kathmandu",
    "province": "3",
    "address": "Hyundai Sales/Service Tinkune",
    "telephone": "+97714111891",
    "type": [
      "car"
    ],
    "latitude": "27.69166081858411",
    "longitude": "85.31175442397266",
    "status": "unavailable",
    "max_speed": 100,
    "rating": 4,
    "raters": 13,
    "id": 100102,
    "supported_payments": [
      "alipay"
    ],
    "amenities": [
      "parking",
      "washroom",
      "shopping"
    ],
    "reviews": []
  },
  {
    "name": "Siddhartha Resort Chisapani - Hyundai",
    "city": "Chisapani",
    "province": "",
    "address": "J7VJ+2H7, Chisapani 21800, Nepal",
    "telephone": "+977 91-414000",
    "type": [
      "car"
    ],
    "latitude": "28.6418987",
    "longitude": "81.2101286",
    "plugs": [
      {
        "plug": "type2",
        "power": "7.2Kw",
        "type": "AC"
      }
    ],
    "amenities": [
      "shopping",
      "washroom"
    ],
    "status": "unavailable",
    "max_speed": 40,
    "rating": 3,
    "raters": 10,
    "id": 100103,
    "supported_payments": [
      "alipay",
      "fonepay",
      "khalti",
      "esewa"
    ],
    "reviews": []
  },
  {
    "name": "Waterfront Resort, Hyundai AC Charger",
    "city": "Pokhara",
    "province": "",
    "address": "Baidam Rd, Pokhara 33700, Nepal",
    "telephone": "+977 980-1166303",
    "type": [
      "car"
    ],
    "latitude": "28.2168724",
    "longitude": "83.9499755",
    "plugs": [
      {
        "plug": "type2",
        "power": "7.2Kw",
        "type": "AC"
      }
    ],
    "amenities": [
      "parking",
      "wifi"
    ],
    "status": "unavailable",
    "max_speed": 40,
    "rating": 4,
    "raters": 9,
    "id": 100104,
    "supported_payments": [
      "alipay",
      "fonepay",
      "khalti",
      "esewa"
    ],
    "reviews": []
  },
  {
    "name": "Hotel Landmark MG",
    "city": "Pokhara",
    "province": "",
    "address": "6X39+HRP, Pokhara 33700, Nepal",
    "telephone": "+977 61-461500",
    "type": [
      "car"
    ],
    "latitude": "28.206273",
    "longitude": "83.8956421",
    "plugs": [
      {
        "plug": "type2",
        "power": "7.2Kw",
        "type": "AC"
      }
    ],
    "amenities": [
      "wifi",
      "shopping",
      "food",
      "parking"
    ],
    "status": "level2",
    "max_speed": 100,
    "rating": 3,
    "raters": 5,
    "id": 100105,
    "supported_payments": [
      "alipay"
    ],
    "reviews": []
  },
  {
    "name": "Nepal Electricity Authority BYD",
    "city": "Pokhara",
    "province": "",
    "address": "6X39+HRP, Pokhara 33700, Nepal",
    "telephone": "+977 61-461500",
    "type": [
      "car"
    ],
    "latitude": "28.2097048",
    "longitude": "83.9062398",
    "plugs": [
      {
        "plug": "ccssae",
        "power": "",
        "type": ""
      }
    ],
    "amenities": [
      "food",
      "washroom",
      "shopping",
      "wifi",
      "disability",
      "parking"
    ],
    "status": "fast_charging",
    "max_speed": 100,
    "rating": 3,
    "raters": 14,
    "id": 100106,
    "supported_payments": [
      "fonepay"
    ],
    "reviews": []
  },
  {
    "name": "Pokhara Grande Hotel Hyundai AC charger",
    "city": "Pokhara",
    "province": "",
    "address": "5XRF+X8V, Pokhara 33700, Nepal",
    "telephone": "+977 61-460210",
    "type": [
      "car"
    ],
    "latitude": "28.1899366",
    "longitude": "83.9127872",
    "plugs": [
      {
        "plug": "type2",
        "power": "7.2Kw",
        "type": "AC"
      }
    ],
    "amenities": [
      "food",
      "washroom",
      "disability",
      "wifi",
      "parking",
      "shopping"
    ],
    "status": "fast_charging",
    "max_speed": 40,
    "rating": 4,
    "raters": 12,
    "id": 100107,
    "supported_payments": [
      "alipay"
    ],
    "reviews": []
  },
  {
    "name": "Barahi Service Center - Hyundai AC Charger",
    "city": "Pokhara",
    "province": "",
    "address": "Pokhara-Baglung Hwy, Pokhara 33700, Nepal",
    "telephone": "+977 61-524336",
    "type": [
      "car"
    ],
    "latitude": "28.2293376",
    "longitude": "83.9728405",
    "plugs": [
      {
        "plug": "type2",
        "power": "7.2Kw",
        "type": "AC"
      }
    ],
    "amenities": [
      "parking"
    ],
    "status": "unavailable",
    "max_speed": 40,
    "rating": 4,
    "raters": 8,
    "id": 100108,
    "supported_payments": [
      "esewa",
      "alipay"
    ],
    "reviews": []
  },
  {
    "name": "Ace Overseas - Kia",
    "city": "Pokhara",
    "province": "",
    "address": "6X4V+QMX, Pokhara 33700, Nepal",
    "telephone": "+977 61-435501",
    "type": [
      "car"
    ],
    "latitude": "27.6697302",
    "longitude": "85.3032801",
    "plugs": [
      {
        "plug": "type2",
        "power": "7.2Kw",
        "type": "AC"
      }
    ],
    "amenities": [
      "parking",
      "food"
    ],
    "status": "level2",
    "max_speed": 60,
    "rating": 4,
    "raters": 7,
    "id": 100109,
    "supported_payments": [
      "khalti"
    ],
    "reviews": []
  },
  {
    "name": "Sansar trading Pokhara",
    "city": "Pokhara",
    "province": "",
    "address": "Chinedada Pokhara 14",
    "telephone": "+977 980-6601817",
    "type": [
      "car"
    ],
    "latitude": "28.1810766",
    "longitude": "83.9430331",
    "plugs": [
      {
        "plug": "type2",
        "power": "7.2Kw",
        "type": "AC"
      }
    ],
    "amenities": [
      "parking"
    ],
    "status": "level2",
    "max_speed": 60,
    "rating": 1,
    "raters": 7,
    "id": 100110,
    "supported_payments": [
      "fonepay",
      "alipay",
      "esewa"
    ],
    "reviews": []
  },
  {
    "name": "KOS Dumre 40kW AC Charger",
    "city": "Thumka",
    "province": "",
    "address": "Thumka - Korikha - Bahunbhanjyan Rd, Bandipur 33914, Nepal",
    "telephone": "+977 985-6080622",
    "type": [
      "car"
    ],
    "latitude": "27.9690242",
    "longitude": "84.3920364",
    "plugs": [
      {
        "plug": "ccssae",
        "power": "",
        "type": ""
      }
    ],
    "amenities": [
      "parking",
      "food",
      "washroom",
      "disability",
      "wifi",
      "shopping"
    ],
    "status": "level2",
    "max_speed": 20,
    "rating": 2,
    "raters": 10,
    "id": 100111,
    "supported_payments": [
      "fonepay",
      "esewa"
    ],
    "reviews": []
  },
  {
    "name": "Baba Dham Traders Thee-Go",
    "city": "Darechok",
    "province": "",
    "address": "Muktinath Pani Prashodhan, Prithvi Hwy, Darechok 44200, Nepal",
    "telephone": "+977 56-410010",
    "type": [
      "car"
    ],
    "latitude": "27.8702758",
    "longitude": "84.5369453",
    "plugs": [
      {
        "plug": "type2",
        "power": "7.2Kw",
        "type": "AC"
      }
    ],
    "amenities": [
      "parking",
      "food",
      "wifi",
      "washroom",
      "shopping",
      "disability"
    ],
    "status": "fast_charging",
    "max_speed": 60,
    "rating": 5,
    "raters": 7,
    "id": 100112,
    "supported_payments": [
      "fonepay"
    ],
    "reviews": []
  },
  {
    "name": "Riverside Spring Resort",
    "city": "Darechok",
    "province": "",
    "address": "Riverside Spring Resort, Darechok, Nepal",
    "telephone": "+977 980-1801336",
    "type": [
      "car"
    ],
    "latitude": "27.8751566",
    "longitude": "84.6090905",
    "plugs": [
      {
        "plug": "type2",
        "power": "7.2Kw",
        "type": "AC"
      },
      {
        "plug": "ccssae",
        "power": "",
        "type": ""
      }
    ],
    "amenities": [
      "disability",
      "parking",
      "food"
    ],
    "status": "commercial_charging",
    "max_speed": 20,
    "rating": 1,
    "raters": 9,
    "id": 100113,
    "supported_payments": [
      "alipay",
      "fonepay",
      "esewa"
    ],
    "reviews": []
  },
  {
    "name": "Siddhartha Riverside Resort TATA",
    "city": "Darechok",
    "province": "",
    "address": "H04, Darechok",
    "telephone": "+977 44-692092",
    "type": [
      "car"
    ],
    "latitude": "27.795829",
    "longitude": "84.9915063",
    "plugs": [
      {
        "plug": "ccssae",
        "power": "",
        "type": ""
      }
    ],
    "amenities": [
      "parking",
      "washroom",
      "shopping",
      "food",
      "disability"
    ],
    "status": "unavailable",
    "max_speed": 100,
    "rating": 1,
    "raters": 7,
    "id": 100114,
    "supported_payments": [
      "khalti"
    ],
    "reviews": []
  },
  {
    "name": "Hotel Royal Century MG ZS EV",
    "city": "Bharatpur",
    "province": "",
    "address": "E - W Hwy, Bharatpur 44207, Nepal",
    "telephone": "+977 56-525865",
    "type": [
      "car"
    ],
    "latitude": "27.4310334",
    "longitude": "85.0230911",
    "plugs": [
      {
        "plug": "type2",
        "power": "7.2Kw",
        "type": "AC"
      }
    ],
    "amenities": [
      "parking",
      "shopping",
      "wifi",
      "disability"
    ],
    "status": "fast_charging",
    "max_speed": 20,
    "rating": 2,
    "raters": 15,
    "id": 100115,
    "supported_payments": [
      "fonepay",
      "alipay",
      "esewa"
    ],
    "reviews": []
  },
  {
    "name": "Sajha Auto MG",
    "city": "Bharatpur",
    "province": "",
    "address": "Bypass Rd, Bharatpur 44207, Nepal",
    "telephone": "+977 985-5033935",
    "type": [
      "car"
    ],
    "latitude": "27.6905723",
    "longitude": "84.4315436",
    "plugs": [
      {
        "plug": "type2",
        "power": "7.2Kw",
        "type": "AC"
      }
    ],
    "amenities": [
      "wifi",
      "parking",
      "food"
    ],
    "status": "level2",
    "max_speed": 100,
    "rating": 5,
    "raters": 10,
    "id": 100116,
    "supported_payments": [
      "fonepay",
      "esewa"
    ],
    "reviews": []
  },
  {
    "name": "Pinnacle Trading Hyundai AC Charger",
    "city": "Bharatpur",
    "province": "",
    "address": "Balmandir Rd 10, Bharatpur 44207, Nepal",
    "telephone": "+977 56-522781",
    "type": [
      "car"
    ],
    "latitude": "27.675547",
    "longitude": "84.4309073",
    "plugs": [
      {
        "plug": "type2",
        "power": "7.2Kw",
        "type": "AC"
      }
    ],
    "amenities": [
      "parking",
      "shopping",
      "washroom",
      "disability",
      "food",
      "wifi"
    ],
    "status": "level2",
    "max_speed": 60,
    "rating": 1,
    "raters": 9,
    "id": 100117,
    "supported_payments": [
      "khalti",
      "esewa",
      "alipay",
      "fonepay"
    ],
    "reviews": []
  },
  {
    "name": "Landmark Forest Park MG AC CHARGER",
    "city": "Ratnanagar",
    "province": "",
    "address": "Baghmara Road 44200, Ratnanagar 00977, Nepal",
    "telephone": "+977 1-4004706",
    "type": [
      "car"
    ],
    "latitude": "27.5906715",
    "longitude": "84.4791823",
    "plugs": [
      {
        "plug": "type2",
        "power": "7.2Kw",
        "type": "AC"
      }
    ],
    "amenities": [
      "shopping",
      "disability",
      "wifi"
    ],
    "status": "commercial_charging",
    "max_speed": 100,
    "rating": 3,
    "raters": 11,
    "id": 100118,
    "supported_payments": [
      "esewa",
      "fonepay",
      "alipay",
      "khalti"
    ],
    "reviews": []
  },
  {
    "name": "Hetauda Wheels Hyundai",
    "city": "Hetauda",
    "province": "",
    "address": "E - W Hwy, Hetauda 44107, Nepal",
    "telephone": "+977 57-520200",
    "type": [
      "car"
    ],
    "latitude": "27.4310334",
    "longitude": "85.0230911",
    "plugs": [
      {
        "plug": "type2",
        "power": "7.2Kw",
        "type": "AC"
      }
    ],
    "amenities": [
      "food",
      "wifi",
      "shopping",
      "washroom",
      "disability"
    ],
    "status": "fast_charging",
    "max_speed": 60,
    "rating": 5,
    "raters": 8,
    "id": 100119,
    "supported_payments": [
      "fonepay",
      "khalti",
      "esewa",
      "alipay"
    ],
    "reviews": []
  },
  {
    "name": "Hetauda Bus Park Charging Station (Coming Soon)",
    "city": "Hetauda",
    "province": "",
    "address": "Bypass Road 10, Hetauda 44107, Nepal",
    "telephone": "",
    "type": [
      "car"
    ],
    "latitude": "27.4301604",
    "longitude": "85.0266609",
    "plugs": [
      {
        "plug": "ccssae",
        "power": "",
        "type": ""
      }
    ],
    "amenities": [
      "wifi",
      "washroom",
      "disability",
      "parking",
      "shopping",
      "food"
    ],
    "status": "commercial_charging",
    "max_speed": 100,
    "rating": 1,
    "raters": 7,
    "id": 100120,
    "supported_payments": [
      "fonepay",
      "khalti",
      "alipay",
      "esewa"
    ],
    "reviews": []
  },
  {
    "name": "New MAMA'S CAFE (Coming Soon)",
    "city": "Ugratara Janagal",
    "province": "",
    "address": "Araniko Highway, Ugratara Janagal 45210, Nepal",
    "telephone": "+977 984-1299704",
    "type": [
      "car"
    ],
    "latitude": "27.677168",
    "longitude": "85.3408604",
    "plugs": [
      {
        "plug": "type2",
        "power": "7.2Kw",
        "type": "AC"
      }
    ],
    "amenities": [
      "disability",
      "parking"
    ],
    "status": "commercial_charging",
    "max_speed": 40,
    "rating": 4,
    "raters": 5,
    "id": 100121,
    "supported_payments": [
      "fonepay"
    ],
    "reviews": []
  },
  {
    "name": "Akshit Resort and Rafting MG ZS EV",
    "city": "Mulkot",
    "province": "",
    "address": "Mulkot",
    "telephone": "+977 985-1045480",
    "type": [
      "car"
    ],
    "latitude": "27.4181784",
    "longitude": "85.8586478",
    "plugs": [
      {
        "plug": "type2",
        "power": "7.2Kw",
        "type": "AC"
      }
    ],
    "amenities": [
      "food",
      "disability",
      "shopping",
      "wifi",
      "washroom",
      "parking"
    ],
    "status": "unavailable",
    "max_speed": 20,
    "rating": 2,
    "raters": 13,
    "id": 100122,
    "supported_payments": [
      "esewa",
      "fonepay",
      "khalti",
      "alipay"
    ],
    "reviews": []
  },
  {
    "name": "Taj Riverside Resort TATA Motors",
    "city": "Purano Jhangajholi",
    "province": "",
    "address": "B.P Highway, Purano Jhangajholi",
    "telephone": "",
    "type": [
      "car"
    ],
    "latitude": "27.4181784",
    "longitude": "85.8586478",
    "plugs": [
      {
        "plug": "ccssae",
        "power": "",
        "type": ""
      }
    ],
    "amenities": [
      "washroom",
      "food",
      "parking",
      "disability",
      "shopping"
    ],
    "status": "fast_charging",
    "max_speed": 20,
    "rating": 2,
    "raters": 15,
    "id": 100123,
    "supported_payments": [
      "fonepay",
      "khalti",
      "alipay"
    ],
    "reviews": []
  },
  {
    "name": "Sindhuli Bus Park Charging Station (Coming Soon)",
    "city": "Sindhuli Bus Park",
    "province": "",
    "address": "Sindhuli Bus Park, Kamalamai 45900, Nepal",
    "telephone": "",
    "type": [
      "car"
    ],
    "latitude": "27.2105753",
    "longitude": "85.8417259",
    "plugs": [
      {
        "plug": "ccssae",
        "power": "",
        "type": ""
      }
    ],
    "amenities": [
      "parking",
      "food",
      "shopping"
    ],
    "status": "fast_charging",
    "max_speed": 20,
    "rating": 3,
    "raters": 9,
    "id": 100124,
    "supported_payments": [
      "fonepay",
      "esewa",
      "khalti"
    ],
    "reviews": []
  },
  {
    "name": "Komal Hotel MG",
    "city": "Mithila",
    "province": "",
    "address": "E W, पूर्व पश्चिम राजमार्ग, मिथिला 45600, Nepal",
    "telephone": "",
    "type": [
      "car"
    ],
    "latitude": "26.9405303",
    "longitude": "85.8777271",
    "plugs": [
      {
        "plug": "type2",
        "power": "7.2Kw",
        "type": "AC"
      },
      {
        "plug": "ccssae",
        "power": "",
        "type": ""
      }
    ],
    "amenities": [
      "parking",
      "shopping",
      "wifi"
    ],
    "status": "commercial_charging",
    "max_speed": 60,
    "rating": 2,
    "raters": 11,
    "id": 100125,
    "supported_payments": [
      "alipay"
    ],
    "reviews": []
  },
  {
    "name": "Lahan Bus Park Charging Station (Coming Soon)",
    "city": "Lahan",
    "province": "",
    "address": "PF7C+F9P, Lahan 56500, Nepal",
    "telephone": "",
    "type": [
      "car"
    ],
    "latitude": "26.7180708",
    "longitude": "86.4075821",
    "plugs": [
      {
        "plug": "ccssae",
        "power": "",
        "type": ""
      }
    ],
    "amenities": [
      "washroom",
      "wifi",
      "parking",
      "disability"
    ],
    "status": "unavailable",
    "max_speed": 40,
    "rating": 1,
    "raters": 7,
    "id": 100126,
    "supported_payments": [
      "esewa",
      "alipay",
      "khalti"
    ],
    "reviews": []
  },
  {
    "name": "Itahari -12 Khanar",
    "city": "Itahari",
    "province": "",
    "address": "Koshi Rajmarg 12, Itahari 56705, Nepal",
    "telephone": "+977 25-420111",
    "type": [
      "car"
    ],
    "latitude": "26.6281281",
    "longitude": "87.2031978",
    "plugs": [
      {
        "plug": "type2",
        "power": "7.2Kw",
        "type": "AC"
      }
    ],
    "amenities": [
      "parking",
      "disability",
      "wifi",
      "shopping"
    ],
    "status": "fast_charging",
    "max_speed": 40,
    "rating": 5,
    "raters": 13,
    "id": 100127,
    "supported_payments": [
      "esewa",
      "fonepay"
    ],
    "reviews": []
  },
  {
    "name": "Kesharichand Bhanwarlal Kia (Coming Soon)",
    "city": "Bargachhi, Biratnagar",
    "province": "",
    "address": "Near Radharaman Temple, Bargachhi, बिराटनगर 56613, Nepal",
    "telephone": "+977 21-461127",
    "type": [
      "car"
    ],
    "latitude": "26.4452115",
    "longitude": "87.2071775",
    "plugs": [
      {
        "plug": "type2",
        "power": "7.2Kw",
        "type": "AC"
      }
    ],
    "amenities": [
      "wifi"
    ],
    "status": "unavailable",
    "max_speed": 40,
    "rating": 5,
    "raters": 7,
    "id": 100128,
    "supported_payments": [
      "esewa"
    ],
    "reviews": []
  },
  {
    "name": "Makalu Television",
    "city": "Biratnagar",
    "province": "",
    "address": "F73G+2HM, H08, Biratnagar 56613, Nepal",
    "telephone": "",
    "type": [
      "car"
    ],
    "latitude": "26.4503092",
    "longitude": "87.2058372",
    "plugs": [
      {
        "plug": "type2",
        "power": "7.2Kw",
        "type": "AC"
      },
      {
        "plug": "wall-bs1363",
        "power": "",
        "type": ""
      }
    ],
    "amenities": [
      "food",
      "shopping",
      "disability"
    ],
    "status": "level2",
    "max_speed": 20,
    "rating": 5,
    "raters": 14,
    "id": 100129,
    "supported_payments": [
      "esewa",
      "alipay",
      "fonepay"
    ],
    "reviews": []
  },
  {
    "name": "Pathivara Auto Link Hyundai",
    "city": "Kankai",
    "province": "",
    "address": "E - W Hwy, Birtamode 57204, Nepal",
    "telephone": "",
    "type": [
      "car"
    ],
    "latitude": "27.4310334",
    "longitude": "85.0230911",
    "plugs": [
      {
        "plug": "type2",
        "power": "7.2Kw",
        "type": "AC"
      }
    ],
    "amenities": [
      "disability",
      "food",
      "wifi",
      "shopping"
    ],
    "status": "commercial_charging",
    "max_speed": 20,
    "rating": 5,
    "raters": 15,
    "id": 100130,
    "supported_payments": [
      "esewa",
      "fonepay"
    ],
    "reviews": []
  },
  {
    "name": "Mahalaxmi International",
    "city": "Birtamode",
    "province": "",
    "address": "E - W Hwy, Birtamode 57204, Nepal",
    "time": "9 am - 5 pm",
    "telephone": "+977 23-545688",
    "type": [
      "car"
    ],
    "latitude": "27.4309953",
    "longitude": "85.0319317",
    "plugs": [
      {
        "plug": "type2",
        "power": "7Kw",
        "type": "AC"
      }
    ],
    "amenities": [
      "shopping",
      "food",
      "disability"
    ],
    "status": "level2",
    "max_speed": 60,
    "rating": 2,
    "raters": 15,
    "id": 100131,
    "supported_payments": [
      "alipay",
      "esewa"
    ],
    "reviews": []
  },
  {
    "name": "Thapathali EV Showroom",
    "city": "Kathmandu",
    "province": "1",
    "address": "Thapathali EV Showroom",
    "telephone": "N/A",
    "type": [
      "car"
    ],
    "latitude": "27.677497605840138",
    "longitude": "85.31680342774558",
    "status": "unavailable",
    "max_speed": 60,
    "rating": 2,
    "raters": 12,
    "id": 100132,
    "supported_payments": [
      "alipay",
      "fonepay"
    ],
    "amenities": [
      "parking",
      "disability",
      "washroom",
      "shopping"
    ],
    "reviews": []
  },
  {
    "name": "Labim Mall",
    "city": "Kathmandu",
    "province": "3",
    "address": "Pulchowk Gabahal Rd, Lalitpur",
    "telephone": "+97715529924",
    "type": [
      "car"
    ],
    "latitude": "27.677488106320034",
    "longitude": "85.31666395202585",
    "status": "fast_charging",
    "max_speed": 40,
    "rating": 3,
    "raters": 10,
    "id": 100133,
    "supported_payments": [
      "fonepay",
      "khalti"
    ],
    "amenities": [
      "washroom",
      "food",
      "parking",
      "disability",
      "shopping",
      "wifi"
    ],
    "reviews": []
  },
  {
    "name": "Hyundai Sales Naxal",
    "city": "Kathmandu",
    "province": "3",
    "address": "Naxal, Kathmandu",
    "telephone": "+97714413934",
    "type": [
      "car"
    ],
    "latitude": "27.71556151510917",
    "longitude": "85.33003106227773",
    "status": "commercial_charging",
    "max_speed": 100,
    "rating": 4,
    "raters": 10,
    "id": 100134,
    "supported_payments": [
      "alipay",
      "fonepay",
      "esewa",
      "khalti"
    ],
    "amenities": [
      "wifi",
      "disability",
      "shopping",
      "food",
      "washroom",
      "parking"
    ],
    "reviews": []
  },
  {
    "name": "Trade Tower Thapathali",
    "city": "Kathmandu",
    "province": "3",
    "address": "Thapathali, Kathmandu",
    "telephone": "N/A",
    "type": [
      "car"
    ],
    "latitude": "27.69459375947994",
    "longitude": "85.31994729057585",
    "status": "commercial_charging",
    "max_speed": 100,
    "rating": 3,
    "raters": 5,
    "id": 100135,
    "supported_payments": [
      "alipay"
    ],
    "amenities": [
      "shopping",
      "food",
      "parking"
    ],
    "reviews": []
  },
  {
    "name": "Bauwa Hotel And Guest House",
    "city": "Bardibas",
    "province": "2",
    "address": "Bardibas",
    "telephone": "+9779841808341",
    "type": [
      "car"
    ],
    "latitude": "26.980336417677353",
    "longitude": "85.91898930493367",
    "status": "commercial_charging",
    "max_speed": 20,
    "rating": 1,
    "raters": 7,
    "id": 100136,
    "supported_payments": [
      "khalti",
      "alipay",
      "esewa"
    ],
    "amenities": [
      "food"
    ],
    "reviews": []
  },
  {
    "name": "BYD Park",
    "city": "Kathmandu",
    "province": "3",
    "address": "Thirbam Road, BYD Park, Kathmandu",
    "telephone": "+97714441393",
    "type": [
      "car"
    ],
    "latitude": "27.72036580899628",
    "longitude": "85.33131856411678",
    "status": "level2",
    "max_speed": 20,
    "rating": 2,
    "raters": 9,
    "id": 100137,
    "supported_payments": [
      "khalti",
      "alipay",
      "esewa",
      "fonepay"
    ],
    "amenities": [
      "food",
      "disability"
    ],
    "reviews": []
  },
  {
    "name": "Sajha Yatayat",
    "city": "Lalitpur",
    "province": "3",
    "address": "Pulchowk, Lalitpur",
    "telephone": "+97715552686",
    "type": [
      "car"
    ],
    "latitude": "27.679479689424358",
    "longitude": "85.31745039095695",
    "status": "commercial_charging",
    "max_speed": 20,
    "rating": 1,
    "raters": 11,
    "id": 100138,
    "supported_payments": [
      "alipay"
    ],
    "amenities": [
      "disability",
      "wifi",
      "washroom",
      "shopping",
      "food"
    ],
    "reviews": []
  },
  {
    "name": "Hotel Landmark Pokhara",
    "city": "Pokhara",
    "province": "Gandaki",
    "address": "Lakeside, Pokhara",
    "telephone": "+97761452908",
    "type": [
      "car"
    ],
    "latitude": "28.20810501308324",
    "longitude": "83.95761433286081",
    "status": "unavailable",
    "max_speed": 100,
    "rating": 2,
    "raters": 13,
    "id": 100139,
    "supported_payments": [
      "esewa",
      "alipay",
      "khalti"
    ],
    "amenities": [
      "disability",
      "parking",
      "shopping",
      "wifi"
    ],
    "reviews": []
  },
  {
    "name": "Hotel Gunja Bardibas",
    "city": "Pokhara",
    "province": "2",
    "address": "Bardibas",
    "telephone": "+97744550620",
    "type": [
      "car"
    ],
    "latitude": "26.999713853956326",
    "longitude": "85.90329853345283",
    "status": "fast_charging",
    "max_speed": 60,
    "rating": 5,
    "raters": 8,
    "id": 100140,
    "supported_payments": [
      "alipay",
      "khalti",
      "esewa",
      "fonepay"
    ],
    "amenities": [
      "shopping",
      "washroom",
      "food",
      "wifi"
    ],
    "reviews": []
  },
  {
    "name": "Jagat Motors",
    "city": "Bhairawaha",
    "province": "Lumbini",
    "address": "Siddharthanagar, Bhairahawa",
    "telephone": "+97771525428",
    "type": [
      "car"
    ],
    "latitude": "27.50386430021768",
    "longitude": "83.4561846502268",
    "status": "fast_charging",
    "max_speed": 100,
    "rating": 2,
    "raters": 14,
    "id": 100141,
    "supported_payments": [
      "esewa",
      "fonepay",
      "alipay",
      "khalti"
    ],
    "amenities": [
      "washroom",
      "parking"
    ],
    "reviews": []
  },
  {
    "name": "Laxmi Dinesh 4 Wheelers",
    "city": "Dhangadhi",
    "province": "Sudurpaschim Province",
    "address": "Main Road, Dhangadhi",
    "telephone": "+97791524492",
    "type": [
      "car"
    ],
    "latitude": "28.704641761732702",
    "longitude": "80.56778570363397",
    "status": "unavailable",
    "max_speed": 60,
    "rating": 2,
    "raters": 10,
    "id": 100142,
    "supported_payments": [
      "khalti",
      "fonepay"
    ],
    "amenities": [
      "washroom",
      "shopping",
      "wifi"
    ],
    "reviews": []
  },
  {
    "name": "Siddhartha Resort Chisapani",
    "city": "Chisapani",
    "province": "Karnali",
    "address": "Chisapani Chisapani",
    "telephone": "+97791414000",
    "type": [
      "car"
    ],
    "latitude": "28.643017036827",
    "longitude": "81.28250618044632",
    "status": "fast_charging",
    "max_speed": 40,
    "rating": 1,
    "raters": 8,
    "id": 100143,
    "supported_payments": [
      "alipay",
      "esewa",
      "fonepay",
      "khalti"
    ],
    "amenities": [
      "wifi"
    ],
    "reviews": []
  },
  {
    "name": "Waterfront Resort",
    "city": "Pokhara",
    "province": "Gandaki",
    "address": "Pokhara",
    "telephone": "+97761420004",
    "type": [
      "car"
    ],
    "latitude": "28.222093460066503",
    "longitude": "83.95172023652376",
    "status": "level2",
    "max_speed": 20,
    "rating": 2,
    "raters": 15,
    "id": 100144,
    "supported_payments": [
      "alipay",
      "fonepay"
    ],
    "amenities": [
      "disability",
      "wifi",
      "shopping"
    ],
    "reviews": []
  },
  {
    "name": "Avocado & Orchid Resort",
    "city": "Hetauda",
    "province": "Bagmati",
    "address": "Chaukitol -2, Hetauda Makawanpur Narayani Nepal, Tribhuvan Rajpath, Hetauda 44107",
    "telephone": "+97757520235",
    "type": [
      "car"
    ],
    "latitude": "27.43525489831263",
    "longitude": "85.03541692000935",
    "status": "level2",
    "max_speed": 40,
    "rating": 3,
    "raters": 14,
    "id": 100145,
    "supported_payments": [
      "alipay",
      "khalti",
      "fonepay"
    ],
    "amenities": [
      "food"
    ],
    "reviews": []
  },
  {
    "name": "Hetauda Wheels Pvt Ltd",
    "city": "Hetauda",
    "province": "Bagmati",
    "address": "Hetauda-10, Hetauda 44107",
    "telephone": "+9779855027295",
    "type": [
      "car"
    ],
    "latitude": "27.42559215822066",
    "longitude": "85.02998818755908",
    "status": "level2",
    "max_speed": 100,
    "rating": 2,
    "raters": 15,
    "id": 100146,
    "supported_payments": [
      "esewa"
    ],
    "amenities": [
      "shopping",
      "food"
    ],
    "reviews": []
  },
  {
    "name": "Hotel The Kingsbury",
    "city": "Birtamode",
    "province": "1",
    "address": "E - W Hwy, Birtamode 57204",
    "telephone": "+97723509700",
    "type": [
      "car"
    ],
    "latitude": "26.639386515973417",
    "longitude": "87.97778701782491",
    "status": "unavailable",
    "max_speed": 20,
    "rating": 3,
    "raters": 13,
    "id": 100147,
    "supported_payments": [
      "alipay",
      "khalti",
      "fonepay",
      "esewa"
    ],
    "amenities": [
      "disability"
    ],
    "reviews": []
  },
  {
    "name": "Bodhi Redsun-Shinee Premiere",
    "city": "Bhairahawa",
    "province": "Lumbini",
    "address": "Basantapur 8, Siddharthanagar 32900",
    "telephone": "+97771525957",
    "type": [
      "car"
    ],
    "latitude": "27.51315408771957",
    "longitude": "83.476410364382978",
    "status": "fast_charging",
    "max_speed": 40,
    "rating": 5,
    "raters": 10,
    "id": 100148,
    "supported_payments": [
      "esewa",
      "fonepay"
    ],
    "amenities": [
      "parking",
      "disability"
    ],
    "reviews": []
  },
  {
    "name": "Hotel Da Flamingo",
    "city": "Butwal",
    "province": "Lumbini",
    "address": "Butwal 32907",
    "telephone": "+97771420152",
    "type": [
      "car"
    ],
    "latitude": "27.669669310224027",
    "longitude": "83.46251608871846",
    "status": "level2",
    "max_speed": 100,
    "rating": 4,
    "raters": 13,
    "id": 100149,
    "supported_payments": [
      "esewa",
      "fonepay"
    ],
    "amenities": [
      "washroom",
      "parking",
      "disability",
      "shopping",
      "wifi"
    ],
    "reviews": []
  },
  {
    "name": "Yatri Motorcycles Experience Center",
    "city": "Kathmandu",
    "province": "Bagmati",
    "address": "Thirbam Sadak, Kathmandu 44600",
    "telephone": "+977980-1877447",
    "type": [
      "bike"
    ],
    "latitude": "27.730905482675592",
    "longitude": "85.330016348947",
    "status": "commercial_charging",
    "max_speed": 100,
    "rating": 3,
    "raters": 11,
    "id": 100150,
    "supported_payments": [
      "alipay",
      "fonepay"
    ],
    "amenities": [
      "food"
    ],
    "reviews": []
  },
  {
    "name": "Team Eleven EV World- BYD SHOWROOM",
    "city": "Nepalgunj",
    "province": "Lumbini",
    "address": "Team Eleven EV World, Nepalgunj",
    "telephone": "N/A",
    "type": [
      "car"
    ],
    "latitude": "28.10955066224798",
    "longitude": "81.65709268264737",
    "status": "commercial_charging",
    "max_speed": 100,
    "rating": 5,
    "raters": 14,
    "id": 100151,
    "supported_payments": [
      "fonepay"
    ],
    "amenities": [
      "disability",
      "parking",
      "washroom",
      "wifi",
      "shopping",
      "food"
    ],
    "reviews": []
  },
  {
    "name": "Metro Hospitality Dang",
    "city": "Dang",
    "province": "Lumbini",
    "address": "Tulsipur, Dang",
    "telephone": "+9779868282249",
    "type": [
      "car"
    ],
    "latitude": "28.13355155137408",
    "longitude": "82.28707513285744",
    "status": "commercial_charging",
    "max_speed": 100,
    "rating": 2,
    "raters": 13,
    "id": 100152,
    "supported_payments": [
      "esewa"
    ],
    "amenities": [
      "washroom",
      "food",
      "disability",
      "wifi",
      "parking",
      "shopping"
    ],
    "reviews": []
  },
  {
    "name": "Hyundai Sales/Service Dang",
    "city": "Dang",
    "province": "Lumbini",
    "address": "Hira Bhawan, Rabbe Tole, Ghorahi Lamahi - Tulsipur Road, 22415, Nepal",
    "telephone": "+977082563634",
    "type": [
      "car"
    ],
    "latitude": "28.029439122261298",
    "longitude": "82.49279660346103",
    "status": "unavailable",
    "max_speed": 60,
    "rating": 2,
    "raters": 12,
    "id": 100153,
    "supported_payments": [
      "esewa"
    ],
    "amenities": [
      "disability",
      "shopping",
      "food",
      "parking"
    ],
    "reviews": []
  },
  {
    "name": "Ocean Auto AC Charger",
    "city": "Butwal",
    "province": "Lumbini",
    "address": "MFPG+4WH, Butwal 32907, Nepal",
    "telephone": "+9779857030252",
    "type": [
      "car"
    ],
    "latitude": "27.68587931026063",
    "longitude": "83.47720419304807",
    "status": "fast_charging",
    "max_speed": 60,
    "rating": 4,
    "raters": 11,
    "id": 100154,
    "supported_payments": [
      "khalti",
      "fonepay",
      "esewa"
    ],
    "amenities": [
      "disability",
      "parking",
      "wifi",
      "food"
    ],
    "reviews": []
  },
  {
    "name": "Hyundai Sales/Service Butwal",
    "city": "Butwal",
    "province": "Lumbini",
    "address": "kalikanager, Butwal 32907, Nepal",
    "telephone": "+977071415278",
    "type": [
      "car"
    ],
    "latitude": "27.673458261688964",
    "longitude": "83.46439075215936",
    "status": "fast_charging",
    "max_speed": 40,
    "rating": 2,
    "raters": 13,
    "id": 100155,
    "supported_payments": [
      "khalti"
    ],
    "amenities": [
      "parking",
      "wifi"
    ],
    "reviews": []
  },
  {
    "name": "KOS Coffee & Restaurant",
    "city": "Dumre",
    "province": "Gandaki",
    "address": "Thumka - Korikha - Bahunbhanjyan Rd, Bandipur 33914",
    "telephone": "+9779856080622",
    "type": [
      "car"
    ],
    "latitude": "27.966907044627355",
    "longitude": "84.40475111763509",
    "status": "level2",
    "max_speed": 100,
    "rating": 4,
    "raters": 6,
    "id": 100156,
    "supported_payments": [
      "khalti",
      "esewa"
    ],
    "amenities": [
      "wifi",
      "disability",
      "shopping"
    ],
    "reviews": []
  },
  {
    "name": "Gokarna Forest Resort",
    "city": "Kathmandu",
    "province": "Gandaki",
    "address": "Nagpokhari Marg 390, Gokarneshwor 44600",
    "telephone": "+977014451212",
    "type": [
      "car"
    ],
    "latitude": "27.72962721027683",
    "longitude": "85.39870581209675",
    "status": "commercial_charging",
    "max_speed": 60,
    "rating": 1,
    "raters": 8,
    "id": 100157,
    "supported_payments": [
      "khalti",
      "alipay",
      "esewa"
    ],
    "amenities": [
      "food",
      "washroom",
      "parking",
      "disability",
      "wifi",
      "shopping"
    ],
    "reviews": []
  },
  {
    "name": "Taj Riverside Resort TATA Motors 25kW DC Fast Charger",
    "city": "Mulkot",
    "province": "2",
    "address": "Sunkoshi Rural Municipality Mulkot-5, B.P Highway",
    "telephone": "+9779851088440",
    "type": [
      "car"
    ],
    "latitude": "27.405068909370048",
    "longitude": "85.92027607898733",
    "status": "level2",
    "max_speed": 20,
    "rating": 1,
    "raters": 12,
    "id": 100158,
    "supported_payments": [
      "khalti",
      "fonepay"
    ],
    "amenities": [
      "disability",
      "wifi",
      "washroom"
    ],
    "reviews": []
  },
  {
    "name": "Akshit Resort and Rafting MG ZS EV 7KW AC CHARGER",
    "city": "Mulkot",
    "province": "2",
    "address": "Mulkot Bazaar, Purano Jhangajholi 45400",
    "telephone": "+9779851045480",
    "type": [
      "car"
    ],
    "latitude": "27.402325665640042",
    "longitude": "85.92322642403303",
    "status": "level2",
    "max_speed": 100,
    "rating": 1,
    "raters": 11,
    "id": 100159,
    "supported_payments": [
      "esewa",
      "alipay",
      "fonepay",
      "khalti"
    ],
    "amenities": [
      "washroom",
      "disability",
      "food",
      "shopping"
    ],
    "reviews": []
  },
  {
    "name": "Hyundai Sales/Service Him Auto",
    "city": "Nepalgunj",
    "province": "5",
    "address": "Ratna Rajmarg, Near Nepalgunj Airport, Nepalgunj",
    "telephone": "081-550428",
    "type": [
      "car"
    ],
    "latitude": "28.097939",
    "longitude": "81.652359",
    "status": "commercial_charging",
    "max_speed": 40,
    "rating": 1,
    "raters": 8,
    "id": 100160,
    "supported_payments": [
      "esewa"
    ],
    "amenities": [
      "washroom",
      "parking",
      "disability",
      "shopping"
    ],
    "reviews": []
  },
  {
    "name": "Siddhartha Hotel",
    "city": "Nepalgunj",
    "province": "5",
    "address": "Ratna Rajmarg, Nepalgunj",
    "telephone": "081-551200",
    "type": [
      "car"
    ],
    "latitude": "28.085212",
    "longitude": "81.645616",
    "status": "fast_charging",
    "max_speed": 100,
    "rating": 5,
    "raters": 6,
    "id": 100161,
    "supported_payments": [
      "fonepay",
      "esewa"
    ],
    "amenities": [
      "disability",
      "wifi",
      "shopping",
      "parking",
      "food"
    ],
    "reviews": []
  },
  {
    "name": "Sipradi Trading Pokhara",
    "city": "Pokhara",
    "province": "4",
    "address": "Buddhachowk",
    "telephone": "+977061538499",
    "type": [
      "car"
    ],
    "latitude": "28.2063884735",
    "longitude": "83.9941635132",
    "status": "level2",
    "max_speed": 40,
    "rating": 2,
    "raters": 7,
    "id": 100162,
    "supported_payments": [
      "alipay"
    ],
    "amenities": [
      "disability",
      "washroom",
      "wifi",
      "food"
    ],
    "reviews": []
  },
  {
    "name": "Quick20 Riverside Hotel",
    "city": "Amlekhganj",
    "province": "2",
    "address": "E - W Hwy, Amlekhganj 44400",
    "telephone": "+977053570030",
    "type": [
      "car"
    ],
    "latitude": "27.295827287773257",
    "longitude": "84.98970838885263",
    "status": "level2",
    "max_speed": 100,
    "rating": 3,
    "raters": 8,
    "id": 100163,
    "supported_payments": [
      "khalti"
    ],
    "amenities": [
      "disability",
      "wifi"
    ],
    "reviews": []
  },
  {
    "name": "Sipradi Trading Pvt.Ltd,Basamadi Hetauda",
    "city": "Hetauda",
    "province": "Bagmati",
    "address": "Hetauda 44100",
    "telephone": "+9779801909862",
    "type": [
      "car"
    ],
    "latitude": "27.455518277977536",
    "longitude": "84.9704420179544",
    "status": "commercial_charging",
    "max_speed": 60,
    "rating": 4,
    "raters": 12,
    "id": 100164,
    "supported_payments": [
      "khalti",
      "alipay",
      "esewa",
      "fonepay"
    ],
    "amenities": [
      "disability",
      "parking",
      "food",
      "washroom"
    ],
    "reviews": []
  }
]